[
    {
        "name": "WARRADALE HOTEL",
        "address": "234 DIAGONAL RD  , WARRADALE SA 5046 Australia",
        "state": "SA",
        "phone": 882961019,
        "lat": -35.007763,
        "lng": 138.5382645
    },
    {
        "name": "Vintage Cellars ST IVES VILLAGE 3466",
        "address": "ST IVES VILLAGE CTR  , ST IVES NSW 2075 Australia",
        "state": "NSW",
        "phone": 291446911,
        "lat": -33.7112171,
        "lng": 151.1596991
    },
    {
        "name": "Vintage Cellars Shenton Park 3227",
        "address": "95 NICHOLSON RD  , SHENTON PARK WA 6008 Australia",
        "state": "WA",
        "phone": 893816555,
        "lat": -31.9565159,
        "lng": 115.8203166
    },
    {
        "name": "Vintage Cellars Seaforth 3461",
        "address": "548 Sydney Road  , SEAFORTH NSW 2092 Australia",
        "state": "NSW",
        "phone": 299492072,
        "lat": -33.796792,
        "lng": 151.251161
    },
    {
        "name": "Vintage Cellars NEUTRAL BAY JUNCT 3986",
        "address": "202 MILITARY RD  , NEUTRAL BAY NSW 2089 Australia",
        "state": "NSW",
        "phone": 299042744,
        "lat": -33.8312447,
        "lng": 151.2226955
    },
    {
        "name": "Vintage Cellars Mosman 3522",
        "address": "896 Military Rd  , MOSMAN NSW 2088 Australia",
        "state": "NSW",
        "phone": 296601877,
        "lat": -33.8303866,
        "lng": 151.2445361
    },
    {
        "name": "Vintage Cellars LILLI PILLI 3516",
        "address": "619 PORT HACKING RD  , LILLI PILLI NSW 2229 Australia",
        "state": "NSW",
        "phone": 295253015,
        "lat": -34.0637692,
        "lng": 151.120084
    },
    {
        "name": "Vintage Cellars LEICHHARDT 3673",
        "address": "SH T10 NORTON PLZ SHPNG CTR 51A-57 NORTON ST , LEICHHARDT NSW 2040 Australia",
        "state": "NSW",
        "phone": 295500663,
        "lat": -31.2532183,
        "lng": 146.921099
    },
    {
        "name": "Vintage Cellars HARBORD 3968",
        "address": "27 LAWRENCE ST  , HARBORD NSW 2096 Australia",
        "state": "NSW",
        "phone": 299385122,
        "lat": -33.7786493,
        "lng": 151.2841447
    },
    {
        "name": "Vintage Cellars DARWIN CAVENAGH 3055",
        "address": "27 CAVENAGH ST  , DARWIN NT 0800 Australia",
        "state": "NT",
        "phone": 889417345,
        "lat": -12.4625842,
        "lng": 130.8427996
    },
    {
        "name": "Vintage Cellars COTTESLOE IRVINE 3271",
        "address": "502 STIRLING HWY  , COTTESLOE WA 6011 Australia",
        "state": "WA",
        "phone": 893840777,
        "lat": -31.999677,
        "lng": 115.761684
    },
    {
        "name": "Vintage Cellars COOKS HILL 3983",
        "address": "235 DARBY ST  , COOKS HILL NSW 2300 Australia",
        "state": "NSW",
        "phone": 249292205,
        "lat": -32.9360518,
        "lng": 151.7684064
    },
    {
        "name": "Vintage Cellars CLOVELLY 5461",
        "address": "222 CLOVELLY RD  , CLOVELLY NSW 2031 Australia",
        "state": "NSW",
        "phone": 296655088,
        "lat": -33.9143978,
        "lng": 151.2663845
    },
    {
        "name": "Vintage Cellars Claremont 3278",
        "address": "Shop 135,Claremont Quarter S 23 St Quentin Ave , CLAREMONT WA 6010 Australia",
        "state": "WA",
        "phone": 893847097,
        "lat": -31.981831,
        "lng": 115.780005
    },
    {
        "name": "Vintage Cellars CITY BEACH 3240",
        "address": "SH 2-2A, THE BVDE S\/C 31 GAYTON RD , CITY BEACH WA 6015 Australia",
        "state": "WA",
        "phone": 893859891,
        "lat": -31.926114,
        "lng": 115.766772
    },
    {
        "name": "Vintage Cellars Burnside 2931",
        "address": "T58, Burnside Village SC 447 Port Rush Road , BURNSIDE SA 5065 Australia",
        "state": "SA",
        "phone": 883382454,
        "lat": -34.940577,
        "lng": 138.641688
    },
    {
        "name": "Vintage Cellars BONDI JUNCTION 3551",
        "address": "SH M3 W\/FIELD BONDI JUNCTION 500 OXFORD ST , BONDI JUNCTION NSW 2022 Australia",
        "state": "NSW",
        "phone": 293692488,
        "lat": -31.2532183,
        "lng": 146.921099
    },
    {
        "name": "Vintage Cellars Beecroft 3404",
        "address": "Beecroft Rd & Mary St  , BEECROFT NSW 2119 Australia",
        "state": "NSW",
        "phone": 294841509,
        "lat": -33.7527491,
        "lng": 151.0655341
    },
    {
        "name": "Vintage Cellars Balmain 3375",
        "address": "243 Darling Street  , BALMAIN NSW 2041 Australia",
        "state": "NSW",
        "phone": 298186037,
        "lat": -33.8575766,
        "lng": 151.1826755
    },
    {
        "name": "Vintage Cellars BALGOWLAH 5460",
        "address": "197-215 Condamine St.  , BALGOWLAH NSW 2093 Australia",
        "state": "NSW",
        "phone": 299349880,
        "lat": -33.7930035,
        "lng": 151.2633685
    },
    {
        "name": "Vintage Cellars AVALON 3671",
        "address": "SH 4,17-19 OLD BARRENJOEY RD  , AVALON NSW 2107 Australia",
        "state": "NSW",
        "phone": 299183060,
        "lat": -31.2532183,
        "lng": 146.921099
    },
    {
        "name": "Vintage Cellars ASHBURTON 3760",
        "address": "CNR HIGH & Y STS  , ASHBURTON VIC 3147 Australia",
        "state": "VIC",
        "phone": 398851609,
        "lat": -37.8633868,
        "lng": 145.0794145
    },
    {
        "name": "Vintage Cellars ABBOTSFORD 3401",
        "address": "296-298 GREAT NORTH RD  , ABBOTSFORD NSW 2046 Australia",
        "state": "NSW",
        "phone": 297138674,
        "lat": -33.8563869,
        "lng": 151.1309072
    },
    {
        "name": "VINTAGE BLUE",
        "address": "Ground Flr, 418 Kent Street  , SYDNEY NSW 2000 Australia",
        "state": "NSW",
        "phone": 292863344,
        "lat": -33.871934,
        "lng": 151.2051964
    },
    {
        "name": "UNITY HALL HOTEL",
        "address": "292 Darling Street  , BALMAIN NSW 2041 Australia",
        "state": "NSW",
        "phone": 298101331,
        "lat": -33.8576492,
        "lng": 151.1808007
    },
    {
        "name": "TRADER DUKES MAROOCHYDORE",
        "address": "TRADERS PLACE DENNA ST , MAROOCHYDORE QLD 4558 Australia",
        "state": "QLD",
        "phone": 754796766,
        "lat": -26.6434454,
        "lng": 153.0688815
    },
    {
        "name": "TORRENS ARMS HOTEL",
        "address": "95 BELAIR RD  , KINGSWOOD SA 5062 Australia",
        "state": "SA",
        "phone": 882729255,
        "lat": -34.9740731,
        "lng": 138.6099742
    },
    {
        "name": "TONSLEY HOTEL MOTEL",
        "address": "1274 SOUTH RD  , CLOVELLY PARK SA 5042 Australia",
        "state": "SA",
        "phone": 882768099,
        "lat": -35.0045232,
        "lng": 138.575096
    },
    {
        "name": "Tom's Cellars West Pymble",
        "address": "SH 15,PHILLIP MALL KENDALL ST , WEST PYMBLE NSW 2073 Australia",
        "state": "NSW",
        "phone": 294986767,
        "lat": -31.2532183,
        "lng": 146.921099
    },
    {
        "name": "THE LION HOTEL",
        "address": "161 Melbourne Street  , NORTH ADELAIDE SA 5006 Australia",
        "state": "SA",
        "phone": 883670222,
        "lat": -34.9083375,
        "lng": 138.6058124
    },
    {
        "name": "THE HYDE PARK TAVERN",
        "address": "187 KING WILLIAM RD  , HYDE PARK SA 5061 Australia",
        "state": "SA",
        "phone": 882720800,
        "lat": -34.9555909,
        "lng": 138.6004065
    },
    {
        "name": "THE HIGHWAY",
        "address": "290 ANZAC HWY  , PLYMPTON SA 5038 Australia",
        "state": "SA",
        "phone": 883513192,
        "lat": -34.9645326,
        "lng": 138.5537716
    },
    {
        "name": "THE GRAND HOTEL",
        "address": "335 BURNLEY ST  , RICHMOND VIC 3121 Australia",
        "state": "VIC",
        "phone": 394292530,
        "lat": -37.824924,
        "lng": 145.0074838
    },
    {
        "name": "THE FIREHOUSE - RINGWOOD",
        "address": "253-257 Maroondah Highway  , RINGWOOD VIC 3134 Australia",
        "state": "VIC",
        "phone": 439630261,
        "lat": -37.8134234,
        "lng": 145.2331282
    },
    {
        "name": "THE BOTANICA BAR & BISTRO",
        "address": "401 SCARBOROUGH BEACH RD  , INNALOO WA 6018 Australia",
        "state": "WA",
        "phone": 894453111,
        "lat": -31.9038025,
        "lng": 115.799644
    },
    {
        "name": "THE BATH HOTEL",
        "address": "232 THE PARADE  , NORWOOD SA 5067 Australia",
        "state": "SA",
        "phone": 883312936,
        "lat": -34.9213516,
        "lng": 138.6390983
    },
    {
        "name": "Supabarn Canberra City",
        "address": "SH EG24, BUNDA & PETRIE STS  , CANBERRA CITY ACT 2601 Australia",
        "state": "ACT",
        "phone": 262571777,
        "lat": -35.278841,
        "lng": 149.133337
    },
    {
        "name": "SUFFOLK PARK HOTEL",
        "address": "223 BROKENHEAD RD  , BYRON BAY NSW 2481 Australia",
        "state": "NSW",
        "phone": 266853222,
        "lat": -28.6887343,
        "lng": 153.6082983
    },
    {
        "name": "STIRLING HOTEL",
        "address": "52 MT BAKER RD  , STIRLING SA 5152 Australia",
        "state": "SA",
        "phone": 883392345,
        "lat": -35.0070218,
        "lng": 138.7179875
    },
    {
        "name": "St Peters Cellars",
        "address": "SH 3 66 SIXTH AVE , ST PETERS SA 5069 Australia",
        "state": "SA",
        "phone": 883625448,
        "lat": -34.903790,
        "lng": 138.622305
    },
    {
        "name": "SEMAPHORE ROAD CELLARS",
        "address": "130 SEMAPHORE RD  , EXETER SA 5019 Australia",
        "state": "SA",
        "phone": 884496841,
        "lat": -34.8401669,
        "lng": 138.4887846
    },
    {
        "name": "SACKVILLE HOTEL",
        "address": "599 DARLING ST  , ROZELLE NSW 2039 Australia",
        "state": "NSW",
        "phone": 295557555,
        "lat": -33.86088,
        "lng": 151.1713885
    },
    {
        "name": "ROSE BAY NORTH CELLARS",
        "address": "659 Old South Head Road  , ROSE BAY NORTH NSW 2030 Australia",
        "state": "NSW",
        "phone": 293716274,
        "lat": -33.8651825,
        "lng": 151.2782717
    },
    {
        "name": "Red Bottle Elizabeth St",
        "address": "138 Castlereigh Street  , SYDNEY NSW 2000 Australia",
        "state": "NSW",
        "phone": 292612315,
        "lat": -33.8702324,
        "lng": 151.209512
    },
    {
        "name": "PORTERS NORTHWOOD",
        "address": "1 NORTHWOOD RD  , NORTHWOOD NSW 2066 Australia",
        "state": "NSW",
        "phone": 294271337,
        "lat": -33.8239914,
        "lng": 151.1723505
    },
    {
        "name": "Porters Balgowlah",
        "address": "404 SYDNEY ROAD  , BALGOWLAH NSW 2093 Australia",
        "state": "NSW",
        "phone": 299480745,
        "lat": -33.7939312,
        "lng": 151.2629687
    },
    {
        "name": "Pig n Whistle Riverside",
        "address": "SH 20,RIVERSIDE CTR 123 EAGLE ST , BRISBANE QLD 4000 Australia",
        "state": "QLD",
        "phone": 732299999,
        "lat": -20.9175738,
        "lng": 142.7027956
    },
    {
        "name": "PARKHILL CELLARS",
        "address": "43 ERROL ST  , NORTH MELBOURNE VIC 3051 Australia",
        "state": "VIC",
        "phone": 393281132,
        "lat": -37.803972,
        "lng": 144.949183
    },
    {
        "name": "PARKHILL CELLARS",
        "address": "43 ERROL ST  , NORTH MELBOURNE VIC 3051 Australia",
        "state": "VIC",
        "phone": 393281132,
        "lat": -37.803972,
        "lng": 144.949183
    },
    {
        "name": "PARADE CELLARS",
        "address": "SH 15\/161 - 175 THE PARADE  , NORWOOD SA 5067 Australia",
        "state": "SA",
        "phone": 883646834,
        "lat": -34.920685,
        "lng": 138.636188
    },
    {
        "name": "PADDINGTON TAVERN OFF PREMIS",
        "address": "186 GIVEN TCE  , PADDINGTON QLD 4064 Australia",
        "state": "QLD",
        "phone": 733690044,
        "lat": -27.4622576,
        "lng": 153.0065984
    },
    {
        "name": "NILLUMBIK CELLARS",
        "address": "11 CHUTE ST  , DIAMOND CREEK VIC 3089 Australia",
        "state": "VIC",
        "phone": 394381249,
        "lat": -37.672388,
        "lng": 145.15122
    },
    {
        "name": "Mr Liquor Drummoyne",
        "address": "182-184 Lyons Road  , DRUMMOYNE NSW 2047 Australia",
        "state": "NSW",
        "phone": 298197289,
        "lat": -33.8562263,
        "lng": 151.1462723
    },
    {
        "name": "Mr Liquor Cronulla",
        "address": "17 The Kingsway  , CRONULLA NSW 2230 Australia",
        "state": "NSW",
        "phone": 295273562,
        "lat": -34.0509119,
        "lng": 151.1528237
    },
    {
        "name": "MOSS VALE HOTEL",
        "address": "ARGYLE ST  , MOSS VALE NSW 2577 Australia",
        "state": "NSW",
        "phone": 248681007,
        "lat": -34.5462804,
        "lng": 150.3748604
    },
    {
        "name": "MARRYATVILLE HOTEL",
        "address": "239 KENSINGTON RD  , KENSINGTON SA 5068 Australia",
        "state": "SA",
        "phone": 883332242,
        "lat": -34.9262076,
        "lng": 138.6499317
    },
    {
        "name": "MANLY HOTEL OFF PREMISE",
        "address": "54 CAMBRIDGE PDE  , MANLY QLD 4179 Australia",
        "state": "QLD",
        "phone": 732495999,
        "lat": -27.4543209,
        "lng": 153.1849226
    },
    {
        "name": "Local Liquor Griffith",
        "address": "2 Baker Street  , GRIFFITH ACT 2603 Australia",
        "state": "ACT",
        "phone": 262950781,
        "lat": -35.3285101,
        "lng": 149.1427211
    },
    {
        "name": "Local Liquor Ainslie",
        "address": "9-11 Edgar Street  , AINSLIE ACT 2602 Australia",
        "state": "ACT",
        "phone": 262306622,
        "lat": -35.2619766,
        "lng": 149.1449832
    },
    {
        "name": "KINGSFORD HOMESTEAD",
        "address": "62 Kingsford Road  , KINGSFORD SA 5118 Australia",
        "state": "SA",
        "phone": 429847251,
        "lat": -34.5405915,
        "lng": 138.7928933
    },
    {
        "name": "KENT ST CELLARS",
        "address": "1\/168 KENT ST  , SYDNEY NSW 2000 Australia",
        "state": "NSW",
        "phone": 292522999,
        "lat": -33.8622259,
        "lng": 151.2042375
    },
    {
        "name": "KEMENYS",
        "address": "137-147 BONDI RD  , BONDI NSW 2026 Australia",
        "state": "NSW",
        "phone": 293896422,
        "lat": -33.8940781,
        "lng": 151.2633244
    },
    {
        "name": "JIMS CELLARS WAITARA",
        "address": "65 Edgeworth David Avenue  , WAITARA NSW 2077 Australia",
        "state": "NSW",
        "phone": 294897177,
        "lat": -33.7066072,
        "lng": 151.1097358
    },
    {
        "name": "IGA Plus Liquor E Lindfield",
        "address": "1-3 Hughes Pl  , EAST LINFIELD NSW 2070 Australia",
        "state": "NSW",
        "phone": 294163545,
        "lat": -33.7676661,
        "lng": 151.1875409
    },
    {
        "name": "Henley Fine Wines",
        "address": "18\/19 Henley Square Pav  , HENLEY BEACH SA 5022 Australia",
        "state": "SA",
        "phone": 883533611,
        "lat": -34.919394,
        "lng": 138.493565
    },
    {
        "name": "Great Eastern Hotel",
        "address": "71 Main Road  , LITTLEHAMPTON SA 5250 Australia",
        "state": "SA",
        "phone": 883911712,
        "lat": -35.0353301,
        "lng": 138.911885
    },
    {
        "name": "GRANGE HOTEL",
        "address": "489 ESPLANADE  , GRANGE SA 5022 Australia",
        "state": "SA",
        "phone": 883568111,
        "lat": -34.9021753,
        "lng": 138.4896046
    },
    {
        "name": "GOODWOOD PARK HOTEL",
        "address": "75 GOODWOOD RD  , GOODWOOD SA 5034 Australia",
        "state": "SA",
        "phone": 882729185,
        "lat": -34.9487665,
        "lng": 138.5900403
    },
    {
        "name": "Goodwood Cellars",
        "address": "125 GOODWOOD RD  , GOODWOOD SA 5034 Australia",
        "state": "SA",
        "phone": 882717481,
        "lat": -34.9519084,
        "lng": 138.5899688
    },
    {
        "name": "First Choice UNLEY 7250",
        "address": "UNLEY RD & CLIFTON ST  , UNLEY SA 5061 Australia",
        "state": "SA",
        "phone": 881792151,
        "lat": -34.955743,
        "lng": 138.6078954
    },
    {
        "name": "First Choice TOWNSVILLE 8588",
        "address": "C\/- LL DC HEATHWOOD 62A STRADBROKE ST , HEATHWOOD QLD 4110 Australia",
        "state": "QLD",
        "phone": 747724622,
        "lat": -20.9175738,
        "lng": 142.7027956
    },
    {
        "name": "First Choice Toowoomba 7211",
        "address": "135 Herries ST  , TOOWOOMBA QLD 4350 Australia",
        "state": "QLD",
        "phone": 746168800,
        "lat": -27.5651713,
        "lng": 151.9553286
    },
    {
        "name": "First Choice Toowong 7209",
        "address": "10 SYLVAN RD  , TOOWONG QLD 4066 Australia",
        "state": "QLD",
        "phone": 737210300,
        "lat": -27.4825567,
        "lng": 152.9957637
    },
    {
        "name": "First Choice Tooronga 7231",
        "address": "Toorak & Tooronga Rd  , TOORONGA VIC 3146 Australia",
        "state": "VIC",
        "phone": 398281100,
        "lat": -37.4713077,
        "lng": 144.7851531
    },
    {
        "name": "First Choice SYLVANIA 7016",
        "address": "Southgate S\/C Princes Hwy & Port Hacking R , SYLVANIA NSW 2224 Australia",
        "state": "NSW",
        "phone": 285436300,
        "lat": -31.2532183,
        "lng": 146.921099
    },
    {
        "name": "First Choice SOUTHPORT 8656",
        "address": "201 FERRY RD  , SOUTHPORT QLD 4215 Australia",
        "state": "QLD",
        "phone": 755565155,
        "lat": -27.9902111,
        "lng": 153.4119703
    },
    {
        "name": "First Choice RUNAWAY BAY 7200",
        "address": "516 LAE DRV  , RUNAWAY BAY QLD 4216 Australia",
        "state": "QLD",
        "phone": 755007900,
        "lat": -27.912776,
        "lng": 153.3986478
    },
    {
        "name": "First Choice Rosebud 7256",
        "address": "Point Nepean Highway  , ROSEBUD VIC 3939 Australia",
        "state": "VIC",
        "phone": 359500500,
        "lat": -38.356464,
        "lng": 144.9019703
    },
    {
        "name": "First Choice PORT MELBOURNE 7062",
        "address": "120-128 Bay Street  , PORT MELBOURNE VIC 3207 Australia",
        "state": "VIC",
        "phone": 396443500,
        "lat": -37.8410689,
        "lng": 144.940652
    },
    {
        "name": "First Choice PHILLIP 7011",
        "address": "170 MELROSE DRV  , PHILLIP ACT 2606 Australia",
        "state": "ACT",
        "phone": 261228901,
        "lat": -35.3505457,
        "lng": 149.0849144
    },
    {
        "name": "First Choice Nth Wollongong 7274",
        "address": "2A Cnr Station & Flinders Rd  , NORTH WOLLONGONG NSW 2500 Australia",
        "state": "NSW",
        "phone": 242212100,
        "lat": -31.2532183,
        "lng": 146.921099
    },
    {
        "name": "First Choice NORTH ROCKS 7022",
        "address": "WESTFIELD SHOPPING CENTRE 340A NORTHS ROCKS ROAD , NORTH ROCKS NSW 2151 Australia",
        "state": "NSW",
        "phone": 288320200,
        "lat": -31.2532183,
        "lng": 146.921099
    },
    {
        "name": "First Choice Newstead 7217",
        "address": "Ann & Commercial Rds  , NEWSTEAD QLD 4006 Australia",
        "state": "QLD",
        "phone": 732515400,
        "lat": -27.452722,
        "lng": 153.040537
    },
    {
        "name": "First Choice NAREMBURN 7020",
        "address": "302 WILLOUGHBY RD  , NAREMBURN NSW 2065 Australia",
        "state": "NSW",
        "phone": 294328300,
        "lat": -33.8171382,
        "lng": 151.2009079
    },
    {
        "name": "First Choice MORNINGTON 7058",
        "address": "117-133 MAIN STREET  , MORNINGTON VIC 3931 Australia",
        "state": "VIC",
        "phone": 359700000,
        "lat": -38.2204419,
        "lng": 145.0389708
    },
    {
        "name": "First Choice Maroubra 7023",
        "address": "48-58 Maroubra Bay Rd  , MAROUBRA NSW 2035 Australia",
        "state": "NSW",
        "phone": 293442100,
        "lat": -33.9403254,
        "lng": 151.2322712
    },
    {
        "name": "First Choice LUTWYCHE 8645",
        "address": "416 LUTWYCHE RD  , LUTWYCHE QLD 4030 Australia",
        "state": "QLD",
        "phone": 733571000,
        "lat": -27.4154916,
        "lng": 153.0363798
    },
    {
        "name": "First Choice KEPERRA 8658",
        "address": "577 SETTLEMENT RD  , KEPERRA QLD 4054 Australia",
        "state": "QLD",
        "phone": 738515400,
        "lat": -27.4154032,
        "lng": 152.9492311
    },
    {
        "name": "First Choice Kenmore 7284",
        "address": "841 Moggill Road  , KENMORE QLD 4069 Australia",
        "state": "QLD",
        "phone": 737203100,
        "lat": -27.5065986,
        "lng": 152.9486154
    },
    {
        "name": "First Choice JINDALEE 8668",
        "address": "Sinnamon & Goggs Rds  , JINDALEE QLD 4074 Australia",
        "state": "QLD",
        "phone": 737105858,
        "lat": -27.5331738,
        "lng": 152.9500522
    },
    {
        "name": "First Choice Hindmarsh 7277",
        "address": "348 Port Road  , HINDMARSH SA 5007 Australia",
        "state": "SA",
        "phone": 882495400,
        "lat": -34.9029206,
        "lng": 138.5666137
    },
    {
        "name": "First Choice HABERFIELD 7017",
        "address": "249-251 PARRAMATTA RD  , HABERFIELD NSW 2045 Australia",
        "state": "NSW",
        "phone": 297990594,
        "lat": -33.8764767,
        "lng": 151.1299162
    },
    {
        "name": "First Choice Gungahlin 7265",
        "address": "40 Hibberson St  , GUNGAHLIN ACT 2912 Australia",
        "state": "ACT",
        "phone": 262040600,
        "lat": -35.185723,
        "lng": 149.1360903
    },
    {
        "name": "First Choice FORESTVILLE 7019",
        "address": "682 WARRINGAH RD  , FORESTVILLE NSW 2087 Australia",
        "state": "NSW",
        "phone": 289724300,
        "lat": -33.7602678,
        "lng": 151.2085946
    },
    {
        "name": "First Choice FLEMINGTON 7228",
        "address": "145 Epsom Rd  , ASCOT VALE VIC 3032 Australia",
        "state": "VIC",
        "phone": 393714000,
        "lat": -37.7770777,
        "lng": 144.911382
    },
    {
        "name": "First Choice Duncraig 7275",
        "address": "GLENGARRY TAVERN 197 WARWICK ROAD , DUNCRAIG WA 6023 Australia",
        "state": "WA",
        "phone": 892030500,
        "lat": -31.835512,
        "lng": 115.783855
    },
    {
        "name": "First Choice COLLINSWOOD 7252",
        "address": "143 NORTH EAST ROAD  , COLLINSWOOD SA 5081 Australia",
        "state": "SA",
        "phone": 883431100,
        "lat": -34.8841582,
        "lng": 138.6191962
    },
    {
        "name": "First Choice CHANCELLOR PARK 7210",
        "address": "24 - 36 CHANCELLOR VLGE BLVD  , SIPPY DOWNS QLD 4556 Australia",
        "state": "QLD",
        "phone": 754302400,
        "lat": -26.7185856,
        "lng": 153.0478631
    },
    {
        "name": "First Choice CANNON HILL 7213",
        "address": "11 - 17 SOUTHGATE AVENUE  , CANNON HILL QLD 4170 Australia",
        "state": "QLD",
        "phone": 739063800,
        "lat": -27.4683457,
        "lng": 153.094001
    },
    {
        "name": "First Choice CAIRNS 8557",
        "address": "C\/- LL DC HEATHWOOD 62A STRADBROKE ST , HEATHWOOD QLD 4110 Australia",
        "state": "QLD",
        "phone": 740369100,
        "lat": -20.9175738,
        "lng": 142.7027956
    },
    {
        "name": "First Choice Brookvale 7260",
        "address": "63 Winbourne Road  , BROOKVALE NSW 2100 Australia",
        "state": "NSW",
        "phone": 289685700,
        "lat": -33.7627365,
        "lng": 151.2749718
    },
    {
        "name": "First Choice BRADDON 7029",
        "address": "48 Mort St  , BRADDON ACT 2612 Australia",
        "state": "ACT",
        "phone": 262127500,
        "lat": -35.2716363,
        "lng": 149.1321491
    },
    {
        "name": "First Choice BICTON 7403",
        "address": "326 CANNING HWY  , BICTON WA 6157 Australia",
        "state": "WA",
        "phone": 894385900,
        "lat": -32.0356775,
        "lng": 115.785059
    },
    {
        "name": "First Choice BELCONNEN 7031",
        "address": "BELCONNEN MARKETS 15 MARKET ST , BELCONNEN ACT 2617 Australia",
        "state": "ACT",
        "phone": 262178100,
        "lat": -35.237,
        "lng": 149.065
    },
    {
        "name": "First Choice BALWYN 7051",
        "address": "445 WHITEHORSE RD  , BALWYN VIC 3103 Australia",
        "state": "VIC",
        "phone": 398305300,
        "lat": -37.8130471,
        "lng": 145.0852324
    },
    {
        "name": "First Choice ASHFIELD 7012",
        "address": "158 LIVERPOOL ROAD  , ASHFIELD NSW 2131 Australia",
        "state": "NSW",
        "phone": 297975600,
        "lat": -33.8905754,
        "lng": 151.1283687
    },
    {
        "name": "First Choice ASHBURTON 7059",
        "address": "368-374 WARRIGUL ROAD  , ASHBURTON VIC 3147 Australia",
        "state": "VIC",
        "phone": 398098500,
        "lat": -37.86383,
        "lng": 145.092968
    },
    {
        "name": "FEATHERS HOTEL",
        "address": "516 GLYNBURN RD  , BURNSIDE SA 5066 Australia",
        "state": "SA",
        "phone": 883326133,
        "lat": -34.9376525,
        "lng": 138.6606305
    },
    {
        "name": "EDINBURGH HOTEL OFF PREMISE",
        "address": "7 HIGH ST  , MITCHAM SA 5062 Australia",
        "state": "SA",
        "phone": 883732753,
        "lat": -34.9782495,
        "lng": 138.6227728
    },
    {
        "name": "EAST IVANHOE GROCERS",
        "address": "220 Lower Heidelberg Rd  , EAST IVANHOE VIC 3079 Australia",
        "state": "VIC",
        "phone": 394991059,
        "lat": -37.7729309,
        "lng": 145.0582819
    },
    {
        "name": "DEE WHY HOTEL",
        "address": "834 PITTWATER RD  , DEE WHY NSW 2099 Australia",
        "state": "NSW",
        "phone": 299720144,
        "lat": -33.7550624,
        "lng": 151.2842169
    },
    {
        "name": "DAVIDS CELLARS",
        "address": "292 UNWINS BRIDGE RD  , SYDENHAM NSW 2044 Australia",
        "state": "NSW",
        "phone": 280654133,
        "lat": -33.9173301,
        "lng": 151.1658
    },
    {
        "name": "Dan Murphy  WOOLLOONGABBA 2424",
        "address": "DM AT AUSTN NATIONAL HTL 24 TRAFALGAR ST , WOOLLOONGABBA QLD 4102 Australia",
        "state": "QLD",
        "phone": 1300723388,
        "lat": -20.9175738,
        "lng": 142.7027956
    },
    {
        "name": "Dan Murphy  Wolli Creek 1467",
        "address": "Cnr Princess Hwy & Brodie Spark Drive , WOLLI CREEK NSW 2205 Australia",
        "state": "NSW",
        "phone": 1300723388,
        "lat": -33.9307381,
        "lng": 151.1550675
    },
    {
        "name": "Dan Murphy  Wilsonton 2891",
        "address": "Cnr Kirra St & Richmond Dr  , WILSONTON QLD 4350 Australia",
        "state": "QLD",
        "phone": 1300723388,
        "lat": -27.5415434,
        "lng": 151.9241912
    },
    {
        "name": "Dan Murphy  WILLOUGHBY 1285",
        "address": "71-77 PENSHURST ST  , WILLOUGHBY NSW 2068 Australia",
        "state": "NSW",
        "phone": 1300723388,
        "lat": -33.801096,
        "lng": 151.1990201
    },
    {
        "name": "Dan Murphy  West Gosford 1928",
        "address": "67 Central Coast Highway  , WEST GOSFORD NSW 2250 Australia",
        "state": "NSW",
        "phone": 243224230,
        "lat": -33.4273678,
        "lng": 151.3220004
    },
    {
        "name": "Dan Murphy  WENTWORTHVILLE 1801",
        "address": "Cnr Florence St & Great Western Highway , WENTWORTHVILLE NSW 2145 Australia",
        "state": "NSW",
        "phone": 1300723388,
        "lat": -33.8154429,
        "lng": 150.968692
    },
    {
        "name": "Dan Murphy  WELLAND 5722",
        "address": "SHOP 22 WELLAND SHOPPING CTR 532 POINT RD , WELLAND SA 5007 Australia",
        "state": "SA",
        "phone": 882415897,
        "lat": -34.896657,
        "lng": 138.557001
    },
    {
        "name": "Dan Murphy  Warwick Farm 1971",
        "address": "18 Orange Grove Road Cumberland Highway , WARWICK FARM NSW 2170 Australia",
        "state": "NSW",
        "phone": 1300723388,
        "lat": -31.2532183,
        "lng": 146.921099
    },
    {
        "name": "Dan Murphy  Wagga Wagga 1441",
        "address": "Cnr Flinder & Edward Sts  , WAGGA WAGGA NSW 2650 Australia",
        "state": "NSW",
        "phone": 1300723388,
        "lat": -35.1191043,
        "lng": 147.3699656
    },
    {
        "name": "Dan Murphy  Tweed Heads 2091",
        "address": "Corner Parry Street and Minjungbal Drive , SOUTH TWEED HEADS NSW 2385 Australia",
        "state": "NSW",
        "phone": 1300723388,
        "lat": -28.1932419,
        "lng": 153.5412397
    },
    {
        "name": "Dan Murphy  TUGGERANONG 1555",
        "address": "SHS 34-36 TUGGERANONG S\/CTR 150-180 SOWARD WAY , GREENWAY ACT 2900 Australia",
        "state": "ACT",
        "phone": 1300723388,
        "lat": -35.417687,
        "lng": 149.067759
    },
    {
        "name": "Dan Murphy  TUGGERAH 1549",
        "address": "SH M8. WESTFIELD TUGGERAH 50 WYONG RD , TUGGERAH NSW 2259 Australia",
        "state": "NSW",
        "phone": 243054503,
        "lat": -31.2532183,
        "lng": 146.921099
    },
    {
        "name": "Dan Murphy  Top Ryde 1478",
        "address": "DEVLIN ST & BLAXLAND RD  , RYDE NSW 2112 Australia",
        "state": "NSW",
        "phone": 1300723388,
        "lat": -33.8129713,
        "lng": 151.1049824
    },
    {
        "name": "Dan Murphy  TOOWOOMBA 2422",
        "address": "111 James St  , TOOWOOMBA QLD 4350 Australia",
        "state": "QLD",
        "phone": 746323262,
        "lat": -27.5697572,
        "lng": 151.9618691
    },
    {
        "name": "Dan Murphy  THORNLEIGH 1546",
        "address": "2-12 THE COMENARRA PWY  , THORNLEIGH NSW 2120 Australia",
        "state": "NSW",
        "phone": 1300723388,
        "lat": -33.7314967,
        "lng": 151.083046
    },
    {
        "name": "Dan Murphy  The Gap 2817",
        "address": "21 Glenquarie Place  , THE GAP QLD 4061 Australia",
        "state": "QLD",
        "phone": 733666329,
        "lat": -27.4508206,
        "lng": 152.9670635
    },
    {
        "name": "Dan Murphy  Swansea 1849",
        "address": "152 Pacific Hwy  , SWANSEA NSW 2281 Australia",
        "state": "NSW",
        "phone": 249720356,
        "lat": -33.0888956,
        "lng": 151.6379722
    },
    {
        "name": "Dan Murphy  SUNNYBANK 2747",
        "address": "289 MCCULLOUGH ST  , SUNNYBANK QLD 4109 Australia",
        "state": "QLD",
        "phone": 1300723388,
        "lat": -27.5727429,
        "lng": 153.0629492
    },
    {
        "name": "Dan Murphy  STRATHFIELD SOUTH 1233",
        "address": "350-375 LIVERPOOL RD  , STRATHFIELD SOUTH NSW 2135 Australia",
        "state": "NSW",
        "phone": 1300723388,
        "lat": -33.889131,
        "lng": 151.090186
    },
    {
        "name": "Dan Murphy  St Peters 5718",
        "address": "87 Payneham Rd  , ST PETERS SA 5069 Australia",
        "state": "SA",
        "phone": 883632674,
        "lat": -34.9115254,
        "lng": 138.6253972
    },
    {
        "name": "Dan Murphy  SPRINGWOOD 2414",
        "address": "CINDERELLA DR  , SPRINGWOOD QLD 4127 Australia",
        "state": "QLD",
        "phone": 1300723388,
        "lat": -27.6131604,
        "lng": 153.1288496
    },
    {
        "name": "Dan Murphy  South Morang 3073",
        "address": "828 Plenty Road  , SOUTH MORANG VIC 3752 Australia",
        "state": "VIC",
        "phone": 1300723388,
        "lat": -37.6512022,
        "lng": 145.0894081
    },
    {
        "name": "Dan Murphy  SOUTH MELBOURNE 3619",
        "address": "100 Market Street  , SOUTH MELBOURNE VIC 3205 Australia",
        "state": "VIC",
        "phone": 387656371,
        "lat": -37.8303651,
        "lng": 144.9567762
    },
    {
        "name": "Dan Murphy  SHELLHARBOUR 1292",
        "address": "SH 8, LAKES ENTRANCE RD  , SHELLHARBOUR NSW 2529 Australia",
        "state": "NSW",
        "phone": 1300723388,
        "lat": -31.2532183,
        "lng": 146.921099
    },
    {
        "name": "Dan Murphy  Seaford 3086",
        "address": "362 Frankston Dandenong Rd  , SEAFORD VIC 3198 Australia",
        "state": "VIC",
        "phone": 1300723388,
        "lat": -38.1130762,
        "lng": 145.1551729
    },
    {
        "name": "Dan Murphy  Rouse Hill 1524",
        "address": "Windsor & Merryville Roads  , KELLYVILLE NSW 2155 Australia",
        "state": "NSW",
        "phone": 1300723388,
        "lat": -33.7001278,
        "lng": 150.9286204
    },
    {
        "name": "Dan Murphy  Robina 2997",
        "address": "2 Scottsdale Drive  , ROBINA QLD 4226 Australia",
        "state": "QLD",
        "phone": 1300723388,
        "lat": -28.0789413,
        "lng": 153.3892899
    },
    {
        "name": "Dan Murphy  RINGWOOD 3408",
        "address": "HEATHERDALE & CANTERBURY RDS  , RINGWOOD VIC 3134 Australia",
        "state": "VIC",
        "phone": 1300723388,
        "lat": -37.8323433,
        "lng": 145.2133513
    },
    {
        "name": "Dan Murphy  RICHMOND 3616",
        "address": "567 BRIDGE RD  , RICHMOND VIC 3121 Australia",
        "state": "VIC",
        "phone": 394749217,
        "lat": -37.8193485,
        "lng": 145.0096118
    },
    {
        "name": "Dan Murphy  Richmond 1246",
        "address": "7-9 East Market St  , RICHMOND NSW 2753 Australia",
        "state": "NSW",
        "phone": 1300723388,
        "lat": -33.5967644,
        "lng": 150.7531864
    },
    {
        "name": "Dan Murphy  Raymond Terrace 1650",
        "address": "30 Port Stephens Street  , RAYMOND TERRACE NSW 2324 Australia",
        "state": "NSW",
        "phone": 249832193,
        "lat": -32.7587955,
        "lng": 151.7450389
    },
    {
        "name": "Dan Murphy  PRAHRAN 3610",
        "address": "273 - 281 CHAPEL ST  , PRAHRAN VIC 3181 Australia",
        "state": "VIC",
        "phone": 1300723388,
        "lat": -37.848742,
        "lng": 144.993618
    },
    {
        "name": "Dan Murphy  PORT MACQUARIE 1886",
        "address": "CNR Gordon St & Horton St  , PORT MACQUARIE NSW 2444 Australia",
        "state": "NSW",
        "phone": 1300723388,
        "lat": -31.2532183,
        "lng": 146.921099
    },
    {
        "name": "Dan Murphy  Point Cook 3618",
        "address": "9 Murnong St  , POINT COOK VIC 3030 Australia",
        "state": "VIC",
        "phone": 1300723388,
        "lat": -37.8815284,
        "lng": 144.7350403
    },
    {
        "name": "Dan Murphy  Phillip 1437",
        "address": "Hindmarsh Dr & Botany St  , PHILLIP ACT 2606 Australia",
        "state": "ACT",
        "phone": 1300723388,
        "lat": -35.3488597,
        "lng": 149.0883933
    },
    {
        "name": "Dan Murphy  PENRITH 1568",
        "address": "MAXWELL ST & NORTHERN HWY  , PENRITH NSW 2750 Australia",
        "state": "NSW",
        "phone": 1300723388,
        "lat": -31.2532183,
        "lng": 146.921099
    },
    {
        "name": "Dan Murphy  Pasadena 5063",
        "address": "Cnr Forbes St & Day Dr  , PASADENA SA 5042 Australia",
        "state": "SA",
        "phone": 1300723388,
        "lat": -35.0016271,
        "lng": 138.5890483
    },
    {
        "name": "Dan Murphy  PARKWOOD 2420",
        "address": "3 WINTERGREEN DRV  , PARKWOOD QLD 4214 Australia",
        "state": "QLD",
        "phone": 1300723388,
        "lat": -27.9592588,
        "lng": 153.378213
    },
    {
        "name": "Dan Murphy  Parkdale 3740",
        "address": "363-383 Nepean Hwy  , PARKDALE VIC 3195 Australia",
        "state": "VIC",
        "phone": 1300723388,
        "lat": -37.9974818,
        "lng": 145.0845891
    },
    {
        "name": "Dan Murphy  Orange 1438",
        "address": "86 Summer Street  , ORANGE NSW 2800 Australia",
        "state": "NSW",
        "phone": 1300723388,
        "lat": -33.2837984,
        "lng": 149.0944692
    },
    {
        "name": "Dan Murphy  NORWOOD 5719",
        "address": "97 THE PARADE  , NORWOOD SA 5067 Australia",
        "state": "SA",
        "phone": 1300723388,
        "lat": -34.920992,
        "lng": 138.6326621
    },
    {
        "name": "Dan Murphy  NOOSAVILLE 2421",
        "address": "17-21 MARY ST  , NOOSAVILLE QLD 4566 Australia",
        "state": "QLD",
        "phone": 754741061,
        "lat": -26.401021,
        "lng": 153.063876
    },
    {
        "name": "Dan Murphy  NOARLUNGA 5202",
        "address": "CENTRO COLONNADES BEACH RD  , NOARLUNGA CENTRE SA 5168 Australia",
        "state": "SA",
        "phone": 884481157,
        "lat": -35.1422288,
        "lng": 138.4960856
    },
    {
        "name": "Dan Murphy  NEWCASTLE WEST 1722",
        "address": "23 Steel St  , NEWCASTLE WEST NSW 2302 Australia",
        "state": "NSW",
        "phone": 240372748,
        "lat": -32.928569,
        "lng": 151.7629359
    },
    {
        "name": "Dan Murphy  Nerang 2419",
        "address": "53 Station Street  , NERANG QLD 4211 Australia",
        "state": "QLD",
        "phone": 1300723388,
        "lat": -27.9962396,
        "lng": 153.3387949
    },
    {
        "name": "Dan Murphy  MUNNO PARA 5793",
        "address": "MUNNO PARA SHOPPING CENTRE 600 MAIN NORTH ROAD , SMITHFIELD SA 5114 Australia",
        "state": "SA",
        "phone": 882841106,
        "lat": -34.6885249,
        "lng": 138.6884063
    },
    {
        "name": "Dan Murphy  Mt Pleasant 2063",
        "address": "20 Malcomson Street  , MT PLEASANT QLD 4740 Australia",
        "state": "QLD",
        "phone": 749420124,
        "lat": -21.1235605,
        "lng": 149.184474
    },
    {
        "name": "Dan Murphy  Mt Gambier 5105",
        "address": "112 Commercial Street East  , MOUNT GAMBIER SA 5290 Australia",
        "state": "SA",
        "phone": 1300723388,
        "lat": -37.8310227,
        "lng": 140.7886941
    },
    {
        "name": "Dan Murphy  MONA VALE 1263",
        "address": "25-29 PARK STREET  , MONA VALE NSW 2103 Australia",
        "state": "NSW",
        "phone": 1300723388,
        "lat": -33.6755773,
        "lng": 151.3022829
    },
    {
        "name": "Dan Murphy  MITTAGONG 1795",
        "address": "CNR BOWRAL RD & PIONEER ST  , MITTAGONG NSW 2575 Australia",
        "state": "NSW",
        "phone": 1300723388,
        "lat": -34.4517639,
        "lng": 150.4448844
    },
    {
        "name": "Dan Murphy  Middle Park 2401",
        "address": "96 Sumners Rd  , MIDDLE PARK QLD 4074 Australia",
        "state": "QLD",
        "phone": 737158595,
        "lat": -27.5627399,
        "lng": 152.9316136
    },
    {
        "name": "Dan Murphy  MERMAID WATERS 2418",
        "address": "CNR MARKERI ST & SUNSHINE BLVD , MERMAID WATERS QLD 4218 Australia",
        "state": "QLD",
        "phone": 1300723388,
        "lat": -28.0480536,
        "lng": 153.4270823
    },
    {
        "name": "Dan Murphy  MENAI 1552",
        "address": "MENAI CENTRAL,BUILDING C OLD ILLAWARRA RD , MENAI NSW 2234 Australia",
        "state": "NSW",
        "phone": 294998283,
        "lat": -31.2532183,
        "lng": 146.921099
    },
    {
        "name": "Dan Murphy  Melton 3257",
        "address": "585-591 High St  , MELTON VIC 3337 Australia",
        "state": "VIC",
        "phone": 1300723388,
        "lat": -37.6852542,
        "lng": 144.5599193
    },
    {
        "name": "Dan Murphy  MELBOURNE QVB 3419",
        "address": "13 & 15, LEVEL 1 QV BUILDING SWANSTON & LONSDALE STS , MELBOURNE VIC 3000 Australia",
        "state": "VIC",
        "phone": 1300723388,
        "lat": -37.811255,
        "lng": 144.964608
    },
    {
        "name": "Dan Murphy  Marriott Waters 3085",
        "address": "Cnr Marriott Blvd & Thompson Marriott Waters , LYNDHURST VIC 3975 Australia",
        "state": "VIC",
        "phone": 1300723388,
        "lat": -37.4713077,
        "lng": 144.7851531
    },
    {
        "name": "Dan Murphy  MARION 5656",
        "address": "WESTFIELD MARION SHPING CTR MORPHETT RD & ANDERS AVE , MARION SA 5043 Australia",
        "state": "SA",
        "phone": 883585963,
        "lat": -35.016094,
        "lng": 138.545728
    },
    {
        "name": "Dan Murphy  MARDEN 5703",
        "address": "MARDEN SHPING CTR 9 LOWER PORTRUSH RD , MARDEN SA 5070 Australia",
        "state": "SA",
        "phone": 1300723388,
        "lat": -34.895321,
        "lng": 138.638549
    },
    {
        "name": "Dan Murphy  MANLY VALE 1237",
        "address": "279-283 CONDAMINE ST  , MANLY VALE NSW 2093 Australia",
        "state": "NSW",
        "phone": 1300723388,
        "lat": -33.7857715,
        "lng": 151.2664573
    },
    {
        "name": "Dan Murphy  Malvern East 3605",
        "address": "821 Dandenong Rd  , MALVERN EAST VIC 3145 Australia",
        "state": "VIC",
        "phone": 1300723388,
        "lat": -37.8740739,
        "lng": 145.0401362
    },
    {
        "name": "Dan Murphy  MALVERN 3625",
        "address": "2 - 8 EDSALL ST  , MALVERN VIC 3144 Australia",
        "state": "VIC",
        "phone": 1300723388,
        "lat": -37.861064,
        "lng": 145.029236
    },
    {
        "name": "Dan Murphy  MACKAY 2425",
        "address": "189 Victoria Street  , MACKAY QLD 4740 Australia",
        "state": "QLD",
        "phone": 1300723388,
        "lat": -21.1407878,
        "lng": 149.1800786
    },
    {
        "name": "Dan Murphy  MACARTHUR SQ 1535",
        "address": "MACARTHUR SQ, LVL 1, CO48\/49 GILCHRIST RD , AMBARVALE NSW 2560 Australia",
        "state": "NSW",
        "phone": 1300723388,
        "lat": -31.2532183,
        "lng": 146.921099
    },
    {
        "name": "Dan Murphy  Lismore 2974",
        "address": "68 Ballina Street  , LISMORE NSW 2480 Australia",
        "state": "NSW",
        "phone": 1300723388,
        "lat": -28.8140094,
        "lng": 153.283329
    },
    {
        "name": "Dan Murphy  Kotara 1468",
        "address": "30 Northcott Drive Kotara Homemaker Centre , KOTARA NSW 2289 Australia",
        "state": "NSW",
        "phone": 1300723388,
        "lat": -31.2532183,
        "lng": 146.921099
    },
    {
        "name": "Dan Murphy  Kirwan 2828",
        "address": "154 Thuringowa Drive  , KIRWAN QLD 4817 Australia",
        "state": "QLD",
        "phone": 1300723388,
        "lat": -19.3031337,
        "lng": 146.734836
    },
    {
        "name": "Dan Murphy  KINGSFORD 1264",
        "address": "ANZAC PDE & IRVINE ST  , KINGSFORD NSW 2032 Australia",
        "state": "NSW",
        "phone": 1300723388,
        "lat": -33.9290022,
        "lng": 151.2342289
    },
    {
        "name": "Dan Murphy  KEW 3620",
        "address": "299 HIGH ST  , KEW VIC 3101 Australia",
        "state": "VIC",
        "phone": 1300723388,
        "lat": -37.804845,
        "lng": 145.0353962
    },
    {
        "name": "Dan Murphy  Kelmscott 4440",
        "address": "2734 Albany Hwy  , KELMSCOTT WA 6111 Australia",
        "state": "WA",
        "phone": 1300723388,
        "lat": -32.1115244,
        "lng": 116.0138387
    },
    {
        "name": "Dan Murphy  Kawana 2412",
        "address": "136 Point Cartwright Dr.  , BUDDINA QLD 4575 Australia",
        "state": "QLD",
        "phone": 1300723388,
        "lat": -26.7022628,
        "lng": 153.1290878
    },
    {
        "name": "Dan Murphy  Katoomba 1679",
        "address": "136 Bathurst Road  , KATOOMBA NSW 2780 Australia",
        "state": "NSW",
        "phone": 1300723388,
        "lat": -33.7114505,
        "lng": 150.3099044
    },
    {
        "name": "Dan Murphy  Karingal 3031",
        "address": "332-334 Cranbourne Rd  , FRANKSTON VIC 3199 Australia",
        "state": "VIC",
        "phone": 1300723388,
        "lat": -38.154371,
        "lng": 145.166577
    },
    {
        "name": "Dan Murphy  Ipswich 2527",
        "address": "215 Brisbane St  , IPSWICH QLD 4305 Australia",
        "state": "QLD",
        "phone": 1300723388,
        "lat": -27.6140608,
        "lng": 152.7563575
    },
    {
        "name": "Dan Murphy  HURSTVILLE 1553",
        "address": "WESTFIELD SHPING CTR CROSS ST & THE AVE , HURSTVILLE NSW 2220 Australia",
        "state": "NSW",
        "phone": 1300723388,
        "lat": -33.965980,
        "lng": 151.105152
    },
    {
        "name": "Dan Murphy  HORNSBY1725",
        "address": "WESTFIELD SHOPPING CNTR EDGEWORTH DAVID AVE , HORNSBY NSW 2077 Australia",
        "state": "NSW",
        "phone": 1300723388,
        "lat": -31.2532183,
        "lng": 146.921099
    },
    {
        "name": "Dan Murphy  HOLLAND PARK 2416",
        "address": "935 LOGAN RD  , HOLLAND PARK QLD 4121 Australia",
        "state": "QLD",
        "phone": 1300723388,
        "lat": -27.518530,
        "lng": 153.060831
    },
    {
        "name": "Dan Murphy  Highbury 5019",
        "address": "1017 Lower North East Road  , HIGHBURY SA 5089 Australia",
        "state": "SA",
        "phone": 1300723388,
        "lat": -34.8522903,
        "lng": 138.7014201
    },
    {
        "name": "Dan Murphy  HERVEY BAY 2062",
        "address": "155 Boat Harbour Dr  , URRAWEEN QLD 4655 Australia",
        "state": "QLD",
        "phone": 1300723388,
        "lat": -25.2899728,
        "lng": 152.8354087
    },
    {
        "name": "Dan Murphy  HAMILTON 2061",
        "address": "CNR KINGSFORD-SMITH DR & RACECOURSE RD , HAMILTON QLD 4007 Australia",
        "state": "QLD",
        "phone": 1300723388,
        "lat": -27.4392355,
        "lng": 153.0643246
    },
    {
        "name": "Dan Murphy  GRAFTON 2999",
        "address": "42 DUKE ST  , GRAFTON NSW 2460 Australia",
        "state": "NSW",
        "phone": 1300723388,
        "lat": -29.6915458,
        "lng": 152.9362347
    },
    {
        "name": "Dan Murphy  GOLDEN GROVE 5625",
        "address": "Golden Grove Way  , GOLDEN GROVE SA 5125 Australia",
        "state": "SA",
        "phone": 882841106,
        "lat": -34.7829403,
        "lng": 138.7202086
    },
    {
        "name": "Dan Murphy  Glenunga 5651",
        "address": "557 Portrush Rd  , GLENUNGA SA 5064 Australia",
        "state": "SA",
        "phone": 870719409,
        "lat": -34.9494081,
        "lng": 138.6425625
    },
    {
        "name": "Dan Murphy  Glen Waverley 3635",
        "address": "5 Kingsway  , GLEN WAVERLEY VIC 3150 Australia",
        "state": "VIC",
        "phone": 1300723388,
        "lat": -37.8788979,
        "lng": 145.1637772
    },
    {
        "name": "Dan Murphy  Gladstone 2344",
        "address": "2 Harvey Road  , GLADSTONE QLD 4680 Australia",
        "state": "QLD",
        "phone": 1300723388,
        "lat": -23.8818016,
        "lng": 151.2217331
    },
    {
        "name": "Dan Murphy  Gladesville 1885",
        "address": "328-330 Victoria Rd  , GLADESVILLE NSW 2111 Australia",
        "state": "NSW",
        "phone": 1300723388,
        "lat": -33.8268761,
        "lng": 151.1259298
    },
    {
        "name": "Dan Murphy  GEELONG 3611",
        "address": "155 - 157 PAKINGTON ST  , WEST GEELONG VIC 3218 Australia",
        "state": "VIC",
        "phone": 1300723388,
        "lat": -38.1412801,
        "lng": 144.3479882
    },
    {
        "name": "Dan Murphy  FRANKSTON 3375",
        "address": "425 NEPEAN HWY  , FRANKSTON VIC 3199 Australia",
        "state": "VIC",
        "phone": 1300723388,
        "lat": -38.141614,
        "lng": 145.1224082
    },
    {
        "name": "Dan Murphy  FOREST HILL 3630",
        "address": "SH 5 BRENTFORD SQ  , FOREST HILL VIC 3131 Australia",
        "state": "VIC",
        "phone": 1300723388,
        "lat": -37.4713077,
        "lng": 144.7851531
    },
    {
        "name": "Dan Murphy  FIGTREE CELLARS 1490",
        "address": "231 BURNS BAY RD  , LANE COVE NSW 2066 Australia",
        "state": "NSW",
        "phone": 1300723388,
        "lat": -33.8162314,
        "lng": 151.1517273
    },
    {
        "name": "Dan Murphy  Fawkner 3254",
        "address": "1435 Sydney Road  , FAWKNER VIC 3060 Australia",
        "state": "VIC",
        "phone": 1300723388,
        "lat": -37.690865,
        "lng": 144.9570835
    },
    {
        "name": "Dan Murphy  Essendon Fields 3296",
        "address": "100 Bulla Road  , ESSENDON FIELDS VIC 3041 Australia",
        "state": "VIC",
        "phone": 1300723388,
        "lat": -37.7339852,
        "lng": 144.9055727
    },
    {
        "name": "Dan Murphy  Erina 1839",
        "address": "Fountain Plaza 148 The Entrance Road , ERINA NSW 2250 Australia",
        "state": "NSW",
        "phone": 1300723388,
        "lat": -31.2532183,
        "lng": 146.921099
    },
    {
        "name": "Dan Murphy  Emu Plains 1498",
        "address": "14 Water Street  , EMU PLAINS NSW 2750 Australia",
        "state": "NSW",
        "phone": 1300723388,
        "lat": -33.7529277,
        "lng": 150.6561255
    },
    {
        "name": "Dan Murphy  ELTHAM 3372",
        "address": "SH 2, 6-20 LUCK ST  , ELTHAM VIC 3095 Australia",
        "state": "VIC",
        "phone": 1300723388,
        "lat": -37.4713077,
        "lng": 144.7851531
    },
    {
        "name": "Dan Murphy  EASTWOOD 1723",
        "address": "BLAXLAND RD & ROWE ST  , EASTWOOD NSW 2122 Australia",
        "state": "NSW",
        "phone": 1300723388,
        "lat": -33.7903651,
        "lng": 151.0863453
    },
    {
        "name": "Dan Murphy  EAST MAITLAND 1578",
        "address": "Green Hills Shopping Centre 14 Mitchell Drive , EAST MAITLAND NSW 2323 Australia",
        "state": "NSW",
        "phone": 1300723388,
        "lat": -31.2532183,
        "lng": 146.921099
    },
    {
        "name": "Dan Murphy  DUBBO 1851",
        "address": "Wheelers Lane & Birch Ave  , DUBBO NSW 2830 Australia",
        "state": "NSW",
        "phone": 1300723388,
        "lat": -32.261540,
        "lng": 148.628907
    },
    {
        "name": "Dan Murphy  Double Bay 1276",
        "address": "Cnr Kiaroa Rd & Kiaora Lane  , DOUBLE BAY NSW 2028 Australia",
        "state": "NSW",
        "phone": 1300723388,
        "lat": -33.8775952,
        "lng": 151.2447001
    },
    {
        "name": "Dan Murphy  DONCASTER EAST 3402",
        "address": "898 Doncaster Road  , DONCASTER EAST VIC 3109 Australia",
        "state": "VIC",
        "phone": 1300723388,
        "lat": -37.787762,
        "lng": 145.148710
    },
    {
        "name": "Dan Murphy  DALRYMPLE 2417",
        "address": "310 Bayswater Road  , GARBUTT QLD 4814 Australia",
        "state": "QLD",
        "phone": 1300723388,
        "lat": -19.2746977,
        "lng": 146.7657879
    },
    {
        "name": "Dan Murphy  Currambine 4043",
        "address": "Currambine Market Place Marmion & Shenton Aves , CURRAMBINE WA 6028 Australia",
        "state": "WA",
        "phone": 1300723388,
        "lat": -31.741266,
        "lng": 115.739480
    },
    {
        "name": "Dan Murphy  CORRIMAL 1796",
        "address": "270 Princes Hwy  , CORRIMAL NSW 2518 Australia",
        "state": "NSW",
        "phone": 1300723388,
        "lat": -34.3744102,
        "lng": 150.8963498
    },
    {
        "name": "Dan Murphy  COLYTON 1558",
        "address": "CNR GREAT WESTERN HWY & HEWITT ST , COLYTON NSW 2760 Australia",
        "state": "NSW",
        "phone": 1300723388,
        "lat": -33.7767297,
        "lng": 150.802677
    },
    {
        "name": "Dan Murphy  COFFS HARBOUR 2973",
        "address": "100 Grafton Street  , COFFS HARBOUR NSW 2450 Australia",
        "state": "NSW",
        "phone": 1300723388,
        "lat": -30.294186,
        "lng": 153.115047
    },
    {
        "name": "Dan Murphy  COBURG 3609",
        "address": "MUNRO & LOUISA STS  , COBURG VIC 3058 Australia",
        "state": "VIC",
        "phone": 1300723388,
        "lat": -37.744832,
        "lng": 144.964420
    },
    {
        "name": "Dan Murphy  CHERMSIDE 2411",
        "address": "WESTFIELD CHERMSIDE TENANCY 341, 395 HAMILTON RD , CHERMSIDE QLD 4032 Australia",
        "state": "QLD",
        "phone": 1300723388,
        "lat": -20.9175738,
        "lng": 142.7027956
    },
    {
        "name": "Dan Murphy  CHELSEA HEIGHTS 3379",
        "address": "1 - 19 WELLS RD  , CHELSEA HEIGHTS VIC 3196 Australia",
        "state": "VIC",
        "phone": 1300723388,
        "lat": -38.0289694,
        "lng": 145.1328149
    },
    {
        "name": "Dan Murphy  CHARLESTOWN 1187",
        "address": "30 Pearson St  , CHARLESTOWN NSW 2290 Australia",
        "state": "NSW",
        "phone": 1300723388,
        "lat": -32.9639206,
        "lng": 151.6937673
    },
    {
        "name": "Dan Murphy  CASULA 1277",
        "address": "580 HUME HWY  , CASULA NSW 2170 Australia",
        "state": "NSW",
        "phone": 1300723388,
        "lat": -33.9514701,
        "lng": 150.9038779
    },
    {
        "name": "Dan Murphy  Castle Hill 1469",
        "address": "Old Northern Rd & Cecil Ave  , CASTLE HILL NSW 2154 Australia",
        "state": "NSW",
        "phone": 1300723388,
        "lat": -33.7348089,
        "lng": 151.0031305
    },
    {
        "name": "Dan Murphy  CARNES HILL 1255",
        "address": "CNR COWPASTURE RD & KURRAJONG RD , CARNES HILL NSW 2171 Australia",
        "state": "NSW",
        "phone": 1300723388,
        "lat": -33.9357356,
        "lng": 150.8432478
    },
    {
        "name": "Dan Murphy  Caringbah 1990",
        "address": "343 Port Hacking Road  , CARINGBAH NSW 2229 Australia",
        "state": "NSW",
        "phone": 1300723388,
        "lat": -34.0435647,
        "lng": 151.1230655
    },
    {
        "name": "Dan Murphy  Cannington 4257",
        "address": "1480-1490 Albany Highway  , BECKENHAM WA 6107 Australia",
        "state": "WA",
        "phone": 1300723388,
        "lat": -32.0260283,
        "lng": 115.9479042
    },
    {
        "name": "Dan Murphy  Canning Vale 4414",
        "address": "888 Nicholson Rd  , CANNING VALE WA 6155 Australia",
        "state": "WA",
        "phone": 1300723388,
        "lat": -32.0900733,
        "lng": 115.9183979
    },
    {
        "name": "Dan Murphy  Camberwell 3626",
        "address": "171 Camberwell Road  , CAMBERWELL VIC 3124 Australia",
        "state": "VIC",
        "phone": 1300723388,
        "lat": -37.838891,
        "lng": 145.065596
    },
    {
        "name": "Dan Murphy  Burwood 1906",
        "address": "312 Parramatta Road  , BURWOOD NSW 2134 Australia",
        "state": "NSW",
        "phone": 1300723388,
        "lat": -33.869863,
        "lng": 151.107634
    },
    {
        "name": "Dan Murphy  Burvale 3220",
        "address": "Springvale Rd & Burwood Hwy  , VERMONT SOUTH VIC 3133 Australia",
        "state": "VIC",
        "phone": 1300723388,
        "lat": -37.8550068,
        "lng": 145.1693407
    },
    {
        "name": "Dan Murphy  Bundoora 3081",
        "address": "1056-1140 Plenty Rd  , BUNDOORA VIC 3083 Australia",
        "state": "VIC",
        "phone": 1300723388,
        "lat": -37.71049,
        "lng": 145.0511329
    },
    {
        "name": "Dan Murphy  Bulleen 3084",
        "address": "1 Thompson Road  , BULLEEN VIC 3105 Australia",
        "state": "VIC",
        "phone": 1300723388,
        "lat": -37.777214,
        "lng": 145.081499
    },
    {
        "name": "Dan Murphy  Bull Creek 4038",
        "address": "52-54 Benningfield Rd  , BULL CREEK WA 6149 Australia",
        "state": "WA",
        "phone": 1300723388,
        "lat": -32.0648164,
        "lng": 115.8579577
    },
    {
        "name": "Dan Murphy  BRIGHTON 3440",
        "address": "479 NEPEAN HWY  , EAST BRIGHTON VIC 3186 Australia",
        "state": "VIC",
        "phone": 1300723388,
        "lat": -37.908186,
        "lng": 145.0109499
    },
    {
        "name": "Dan Murphy  BLACKTOWN 1900",
        "address": "80 Blacktown Road  , BLACKTOWN NSW 2148 Australia",
        "state": "NSW",
        "phone": 1300723388,
        "lat": -33.777798,
        "lng": 150.919637
    },
    {
        "name": "Dan Murphy  Biggera Waters 2188",
        "address": "Lot 716 Harbour Town Drive  , BIGGERA WATERS QLD 4216 Australia",
        "state": "QLD",
        "phone": 1300723388,
        "lat": -27.929039,
        "lng": 153.388166
    },
    {
        "name": "Dan Murphy  Belmont 3387",
        "address": "High St & Mt Pleasant Rd  , BELMONT VIC 3216 Australia",
        "state": "VIC",
        "phone": 1300723388,
        "lat": -38.170939,
        "lng": 144.346931
    },
    {
        "name": "Dan Murphy  BELCONNEN 1640",
        "address": "SH 193,LEVEL 3 WESTFIELD SHOPPING CNTR , BELCONNEN ACT 2617 Australia",
        "state": "ACT",
        "phone": 1300723388,
        "lat": -35.238067,
        "lng": 149.065089
    },
    {
        "name": "Dan Murphy  Bega 1043",
        "address": "106 Auckland Street Shop MM03 , BEGA NSW 2550 Australia",
        "state": "NSW",
        "phone": 1300723388,
        "lat": -36.674570,
        "lng": 149.840890
    },
    {
        "name": "Dan Murphy  BATHURST 1822",
        "address": "57 GEORGE STREET  , BATHURST NSW 2794 Australia",
        "state": "NSW",
        "phone": 1300723388,
        "lat": -33.413966,
        "lng": 149.581086
    },
    {
        "name": "Dan Murphy  BANKSTOWN 1836",
        "address": "Shop G.03 Centro Cnr Rickard Rd & Stacey St Centro Bankstown Shop Ctr, BANKSTOWN NSW 2200 Australia",
        "state": "NSW",
        "phone": 1300723388,
        "lat": -33.916033,
        "lng": 151.038430
    },
    {
        "name": "Dan Murphy  Ballina 2971",
        "address": "Kalinga St & Riverview Ave  , BALLINA NSW 2478 Australia",
        "state": "NSW",
        "phone": 1300723388,
        "lat": -28.864409,
        "lng": 153.535332
    },
    {
        "name": "Dan Murphy  Ballarat 3606",
        "address": "Ballarat Rangers Barracks 61 Curtis Street , BALLARAT VIC 3350 Australia",
        "state": "VIC",
        "phone": 394749217,
        "lat": -37.4713077,
        "lng": 144.7851531
    },
    {
        "name": "Dan Murphy  Balga 4413",
        "address": "9\/22 Culloton Crescent  , BALGA WA 6061 Australia",
        "state": "WA",
        "phone": 1300723388,
        "lat": -31.8491266,
        "lng": 115.8251511
    },
    {
        "name": "Dan Murphy  ASCOT VALE 3441",
        "address": "291 - 355 MT ALEXANDER RD  , ASCOT VALE VIC 3032 Australia",
        "state": "VIC",
        "phone": 1300723388,
        "lat": -37.7790167,
        "lng": 144.930796
    },
    {
        "name": "Dan Murphy  ARMIDALE 1871",
        "address": "218 Beardy St (near cnr Jessie St) , ARMIDALE NSW 2350 Australia",
        "state": "NSW",
        "phone": 1300723388,
        "lat": -30.512883,
        "lng": 151.663945
    },
    {
        "name": "Dan Murphy  ALPHINGTON 3600",
        "address": "789 HEIDELBERG RD  , ALPHINGTON VIC 3078 Australia",
        "state": "VIC",
        "phone": 1300723388,
        "lat": -37.779809,
        "lng": 145.033099
    },
    {
        "name": "Dan Murphy  ALEXANDRIA 1879",
        "address": "2-10 FOUNTAIN STREET  , ALEXANDRIA NSW 2015 Australia",
        "state": "NSW",
        "phone": 1300723388,
        "lat": -33.902367,
        "lng": 151.194854
    },
    {
        "name": "Dan Murphy  ALBURY 3342",
        "address": "SPENCER & DEAN STS  , ALBURY NSW 2640 Australia",
        "state": "NSW",
        "phone": 1300723388,
        "lat": -36.0815901,
        "lng": 146.9227483
    },
    {
        "name": "Dan Murphy  Albany Creek 2415",
        "address": "Albany Creek & Wruck Sts  , ALBANY CREEK QLD 4035 Australia",
        "state": "QLD",
        "phone": 1300723388,
        "lat": -27.345361,
        "lng": 152.968433
    },
    {
        "name": "Dan Murphy  Aitkenvale 2455",
        "address": "222 Ross River Rd  , AITKENVALE QLD 4814 Australia",
        "state": "QLD",
        "phone": 1300723388,
        "lat": -19.297163,
        "lng": 146.772629
    },
    {
        "name": "CREMORNE HOTEL",
        "address": "207 UNLEY RD  , UNLEY SA 5061 Australia",
        "state": "SA",
        "phone": 882729746,
        "lat": -34.9534497,
        "lng": 138.6077163
    },
    {
        "name": "CRAFERS INN",
        "address": "4 Main Street  , CRAFERS SA 5152 Australia",
        "state": "SA",
        "phone": 883392050,
        "lat": -34.997421,
        "lng": 138.703889
    },
    {
        "name": "COOGEE BAY HOTEL",
        "address": "COOGEE BAY RD & ARDEN ST  , COOGEE NSW 2034 Australia",
        "state": "NSW",
        "phone": 396641576,
        "lat": -33.920649,
        "lng": 151.256845
    },
    {
        "name": "COLMSLIE HOTEL MOTEL",
        "address": "CNR JUNCTION & WYNNUM RDS  , MORNINGSIDE QLD 4170 Australia",
        "state": "QLD",
        "phone": 733998222,
        "lat": -27.4667534,
        "lng": 153.0785694
    },
    {
        "name": "Chambers Spit Junction (W)",
        "address": "Shop 1-3 Brady Street  , MOSMAN NSW 2088 Australia",
        "state": "NSW",
        "phone": 299683944,
        "lat": -33.8237274,
        "lng": 151.2406149
    },
    {
        "name": "CHAMBERS PYMBLE (WINE)",
        "address": "103 GRANDVIEW PARADE  , PYMBLE NSW 2073 Australia",
        "state": "NSW",
        "phone": 294499511,
        "lat": -33.7440522,
        "lng": 151.1415148
    },
    {
        "name": "CHAMBERS NORTH RANDWICK (W)",
        "address": "99 FRENCHMANS RD  , NORTH RANDWICK NSW 2031 Australia",
        "state": "NSW",
        "phone": 293146555,
        "lat": -33.9070295,
        "lng": 151.2493913
    },
    {
        "name": "CHAMBERS NEWPORT (WINE)",
        "address": "386 BARENJOEY RD  , NEWPORT NSW 2106 Australia",
        "state": "NSW",
        "phone": 299799041,
        "lat": -33.6544473,
        "lng": 151.321545
    },
    {
        "name": "CHAMBERS NEUTRAL BAY (WINE)",
        "address": "SH 1, 7 RANGERS RD  , NEUTRAL BAY NSW 2089 Australia",
        "state": "NSW",
        "phone": 299536574,
        "lat": -31.2532183,
        "lng": 146.921099
    },
    {
        "name": "CHAMBERS GREENWICH WINE",
        "address": "91 GREENWICH RD  , GREENWICH NSW 2065 Australia",
        "state": "NSW",
        "phone": 294230240,
        "lat": -33.8313425,
        "lng": 151.1862236
    },
    {
        "name": "Chambers Crows Nest (W)",
        "address": "Shop 3, 84-90 Atchinson St  , CROWS NEST NSW 2065 Australia",
        "state": "NSW",
        "phone": 294392877,
        "lat": -33.8227042,
        "lng": 151.2002038
    },
    {
        "name": "Chambers Cellars McMahons Pt",
        "address": "121 BLUES PT RD  , MCMAHONS POINT NSW 2060 Australia",
        "state": "NSW",
        "phone": 299554704,
        "lat": -33.8446808,
        "lng": 151.2045212
    },
    {
        "name": "Chambers Bowral (Wine)",
        "address": "Shop 1, 32-34 Bowral Street  , BOWRAL NSW 2576 Australia",
        "state": "NSW",
        "phone": 24807133,
        "lat": -34.4834831,
        "lng": 150.4141642
    },
    {
        "name": "CHAMBERS AVALON FINE WINES",
        "address": "35 AVALON PDE  , AVALON NSW 2107 Australia",
        "state": "NSW",
        "phone": 299183207,
        "lat": -33.6365402,
        "lng": 151.3290728
    },
    {
        "name": "CELLARBRTNS @ FLAGSTAFF HILL",
        "address": "SH 14, MEMFORD WAY  , FLAGSTAFF HILL SA 5159 Australia",
        "state": "SA",
        "phone": 882704333,
        "lat": -35.055158,
        "lng": 138.587186
    },
    {
        "name": "CELLARBRATIONS FULLARTON",
        "address": "378 Fullarton Rd  , FULLARTON SA 5063 Australia",
        "state": "SA",
        "phone": 883795151,
        "lat": -34.9550766,
        "lng": 138.6261754
    },
    {
        "name": "Cellarbrations at Brighton",
        "address": "Shop 1, 525 Brighton Road  , BRIGHTON SA 5048 Australia",
        "state": "SA",
        "phone": 882980404,
        "lat": -35.0219965,
        "lng": 138.5228435
    },
    {
        "name": "CELLARBRATIONS AT BLACKWOOD",
        "address": "243 MAIN RD  , BLACKWOOD SA 5051 Australia",
        "state": "SA",
        "phone": 882785341,
        "lat": -35.020726,
        "lng": 138.6169876
    },
    {
        "name": "CANNONVALE REEF GATEWAY-ON",
        "address": "38 SHUTE HARBOUR ROAD  , CANNONVALE QLD 4802 Australia",
        "state": "QLD",
        "phone": 749462600,
        "lat": -20.2770097,
        "lng": 148.6967268
    },
    {
        "name": "Camperdown Parramatta Rd",
        "address": "140-144 PARRAMATTA RD  , CAMPERDOWN NSW 2050 Australia",
        "state": "NSW",
        "phone": 299531331,
        "lat": -33.886097,
        "lng": 151.177000
    },
    {
        "name": "Camperdown Kingston Rd",
        "address": "21-23 KINGSTON RD  , CAMPERDOWN NSW 2050 Australia",
        "state": "NSW",
        "phone": 295193341,
        "lat": -33.8924332,
        "lng": 151.1721155
    },
    {
        "name": "Camperdown Darlinghurst",
        "address": "235 Victoria Street  , DARLINGHURST NSW 2010 Australia",
        "state": "NSW",
        "phone": 293806133,
        "lat": -33.8778172,
        "lng": 151.2212745
    },
    {
        "name": "Camperdown Bronte",
        "address": "120-128 Macpherson St  , BRONTE NSW 2024 Australia",
        "state": "NSW",
        "phone": 293892940,
        "lat": -33.9059428,
        "lng": 151.2636004
    },
    {
        "name": "BWS TURRAMURRA 1655",
        "address": "97 EASTERN RD  , TURRAMURRA NSW 2074 Australia",
        "state": "NSW",
        "phone": 294892308,
        "lat": -33.720764,
        "lng": 151.131108
    },
    {
        "name": "BWS STIRLING 5766",
        "address": "62 Barker Road  , STIRLING SA 5152 Australia",
        "state": "SA",
        "phone": 883911596,
        "lat": -35.0077104,
        "lng": 138.7199455
    },
    {
        "name": "BWS ROYAL OAK HOTEL 5811",
        "address": "123 O'Connell St  , NORTH ADELAIDE SA 5006 Australia",
        "state": "SA",
        "phone": 882672488,
        "lat": -34.9052619,
        "lng": 138.5951046
    },
    {
        "name": "BWS PROSPECT 5715",
        "address": "76 PROSPECT RD  , PROSPECT SA 5082 Australia",
        "state": "SA",
        "phone": 883441649,
        "lat": -34.8901617,
        "lng": 138.5939911
    },
    {
        "name": "BWS KIRRIBILLI 1653",
        "address": "1 BROUGHTON ST  , KIRRIBILLI NSW 2061 Australia",
        "state": "NSW",
        "phone": 299558822,
        "lat": -33.8472473,
        "lng": 151.2131082
    },
    {
        "name": "BWS ELANORA HEIGHTS 1298",
        "address": "174 POWDER WORKS RD  , ELANORA HEIGHTS NSW 2101 Australia",
        "state": "NSW",
        "phone": 299708944,
        "lat": -33.6951719,
        "lng": 151.2797405
    },
    {
        "name": "BWS CUMBERLAND PARK 5761",
        "address": "472 GOODWOOD RD  , CUMBERLAND PARK SA 5041 Australia",
        "state": "SA",
        "phone": 882729571,
        "lat": -34.9753398,
        "lng": 138.5911183
    },
    {
        "name": "BRITANNIA HOTEL",
        "address": "1 KENSINGTON RD  , NORWOOD SA 5067 Australia",
        "state": "SA",
        "phone": 883310411,
        "lat": -34.9275115,
        "lng": 138.6239195
    },
    {
        "name": "BOOZE BROS UNLEY ON CLYD HTL",
        "address": "27 Unley Rd  , PARKSIDE SA 5063 Australia",
        "state": "SA",
        "phone": 882715544,
        "lat": -34.9430633,
        "lng": 138.6073841
    },
    {
        "name": "BOOZE BROS MILE END",
        "address": "30 HENLEY BEACH RD  , MILE END SA 5031 Australia",
        "state": "SA",
        "phone": 884434756,
        "lat": -34.9230339,
        "lng": 138.5759357
    },
    {
        "name": "BOOZE BROS (AVENUES HOTEL)",
        "address": "CNR PAYNEHAM RD & NELSON ST  , STEPNEY SA 5069 Australia",
        "state": "SA",
        "phone": 883635820,
        "lat": -34.909455,
        "lng": 138.6279295
    },
    {
        "name": "Belrose Hotel",
        "address": "5 HEWS PARADE  , BELROSE NSW 2085 Australia",
        "state": "NSW",
        "phone": 299752053,
        "lat": -33.7331168,
        "lng": 151.2195585
    },
    {
        "name": "BELAIR HOTEL (SA) PL",
        "address": "141 MAIN RD  , BLACKWOOD SA 5051 Australia",
        "state": "SA",
        "phone": 882788777,
        "lat": -35.0122267,
        "lng": 138.6227125
    },
    {
        "name": "BELAIR FINE WINES",
        "address": "9 Russell Street  , BELAIR SA 5052 Australia",
        "state": "SA",
        "phone": 882785222,
        "lat": -34.9981498,
        "lng": 138.6237631
    },
    {
        "name": "BALLINA DISCOUNT LIQUOR",
        "address": "59 - 61 RIVER ST  , BALLINA NSW 2478 Australia",
        "state": "NSW",
        "phone": 266866133,
        "lat": -28.8710524,
        "lng": 153.5626975
    },
    {
        "name": "AVOCA HOTEL",
        "address": "893 SOUTH RD  , CLARENCE GARDENS SA 5039 Australia",
        "state": "SA",
        "phone": 882970300,
        "lat": -34.9743009,
        "lng": 138.5741526
    },
    {
        "name": "ARKABA HOTEL",
        "address": "150 GLEN OSMOND RD  , FULLARTON SA 5063 Australia",
        "state": "SA",
        "phone": 883386406,
        "lat": -34.9475419,
        "lng": 138.6258766
    },
    {
        "name": "AMATO'S LIQUOR MART",
        "address": "267-277 NORTON ST  , LEICHHARDT NSW 2040 Australia",
        "state": "NSW",
        "phone": 295607628,
        "lat": -33.8755191,
        "lng": 151.1566013
    }
]